<?xml version="1.0" encoding="UTF-8"?><kml xmlns="http://www.opengis.net/kml/2.2">
<Document>
<Placemark>
  <name>ROUTE DES ANGLIERS, VILLEMURLIN</name>
  <Point>
    <coordinates>2.33533,47.687995</coordinates>
  </Point>
</Placemark>
<Placemark>
  <name>LE BOURG, FEINS-EN-GATINAIS</name>
  <Point>
    <coordinates>2.839866,47.745883</coordinates>
  </Point>
</Placemark>
<Placemark>
  <name>PLACE DU GENERAL DE GAULLE, ESCRIGNELLES</name>
  <Point>
    <coordinates>2.8214715,47.7160727</coordinates>
  </Point>
</Placemark>
<Placemark>
  <name>AVENUE DE LA REPUBLIQUE, OUZOUER-SUR-TREZEE</name>
  <Point>
    <coordinates>2.808643,47.676142</coordinates>
  </Point>
</Placemark>
<Placemark>
  <name>PLACE DE LA LIBERATION, OUZOUER-SUR-TREZEE</name>
  <Point>
    <coordinates>2.8012325,47.6806251</coordinates>
  </Point>
</Placemark>
<Placemark>
  <name>RUE DU STADE, OUZOUER-SUR-TREZEE</name>
  <Point>
    <coordinates>2.805441,47.672725</coordinates>
  </Point>
</Placemark>
<Placemark>
  <name>RUE DU FOURNEAU, OUZOUER-SUR-TREZEE</name>
  <Point>
    <coordinates>2.814554,47.671657</coordinates>
  </Point>
</Placemark>
<Placemark>
  <name>MAIRIE LE BOURG, BRETEAU</name>
  <Point>
    <coordinates>2.89313697815,47.6826667786</coordinates>
  </Point>
</Placemark>
<Placemark>
  <name>MAIRIE, CHAMPOULET</name>
  <Point>
    <coordinates>2.9201215,47.6583184</coordinates>
  </Point>
</Placemark>
<Placemark>
  <name>SALLE DE REUNION, DAMMARIE-EN-PUISAYE</name>
  <Point>
    <coordinates>2.87185001373,47.6269989014</coordinates>
  </Point>
</Placemark>
<Placemark>
  <name>LE BOURG, FAVERELLES</name>
  <Point>
    <coordinates>2.93344,47.576218</coordinates>
  </Point>
</Placemark>
<Placemark>
  <name>MAIRIE 12 ROUTE IMPERIALE, THOU</name>
  <Point>
    <coordinates>2.9116,47.58113</coordinates>
  </Point>
</Placemark>
<Placemark>
  <name>PLACE DU 19 MARS (LES PUISEAUX), BONNY-SUR-LOIRE</name>
  <Point>
    <coordinates>2.842616,47.563752</coordinates>
  </Point>
</Placemark>
<Placemark>
  <name>RUE DE LA CHAMPAGNE, BONNY-SUR-LOIRE</name>
  <Point>
    <coordinates>2.836283,47.565902</coordinates>
  </Point>
</Placemark>
<Placemark>
  <name>MAIRIE, BATILLY-EN-PUISAYE</name>
  <Point>
    <coordinates>2.8358989,47.564671</coordinates>
  </Point>
</Placemark>
<Placemark>
  <name>MAIRIE - RUE DUGUE, BONNY-SUR-LOIRE</name>
  <Point>
    <coordinates>2.840280056,47.5614013672</coordinates>
  </Point>
</Placemark>
<Placemark>
  <name>FACE AU 2 RUE DE BON CŒUR, BONNY-SUR-LOIRE</name>
  <Point>
    <coordinates>2.849242,47.554178</coordinates>
  </Point>
</Placemark>
<Placemark>
  <name>FAUBOURG VILLENEUVE (ENTRE LE 16 ET 18), BONNY-SUR-LOIRE</name>
  <Point>
    <coordinates>2.84543,47.555329</coordinates>
  </Point>
</Placemark>
<Placemark>
  <name>RUE DE LA POSTE, BEAULIEU-SUR-LOIRE</name>
  <Point>
    <coordinates>2.817702,47.542867</coordinates>
  </Point>
</Placemark>
<Placemark>
  <name>RUE DE CHATILLON, BEAULIEU-SUR-LOIRE</name>
  <Point>
    <coordinates>2.81345,47.544248</coordinates>
  </Point>
</Placemark>
<Placemark>
  <name>PLACE DU MONUMENT, PIERREFITTE-ES-BOIS</name>
  <Point>
    <coordinates>2.716397,47.507322</coordinates>
  </Point>
</Placemark>
<Placemark>
  <name>ECOLE, PIERREFITTE-ES-BOIS</name>
  <Point>
    <coordinates>2.715697,47.508019</coordinates>
  </Point>
</Placemark>
<Placemark>
  <name>MAIRIE 2 RUE DE CONCRESSAULT, CERNOY-EN-BERRY</name>
  <Point>
    <coordinates>2.659047,47.538286</coordinates>
  </Point>
</Placemark>
<Placemark>
  <name>VILLIERS, CHATILLON-SUR-LOIRE</name>
  <Point>
    <coordinates>2.732008,47.585841</coordinates>
  </Point>
</Placemark>
<Placemark>
  <name>FAUBOURG DE NANCRAY, CHATILLON-SUR-LOIRE</name>
  <Point>
    <coordinates>2.743138,47.588687</coordinates>
  </Point>
</Placemark>
<Placemark>
  <name>RUE DE LA BOYAUDIERE, CHATILLON-SUR-LOIRE</name>
  <Point>
    <coordinates>2.745842,47.592085</coordinates>
  </Point>
</Placemark>
<Placemark>
  <name>PETITE PLACE DU MARCHE, CHATILLON-SUR-LOIRE</name>
  <Point>
    <coordinates>2.749426,47.591962</coordinates>
  </Point>
</Placemark>
<Placemark>
  <name>RUE CHAMPAULT, CHATILLON-SUR-LOIRE</name>
  <Point>
    <coordinates>2.753158,47.592456</coordinates>
  </Point>
</Placemark>
<Placemark>
  <name>PLACE SAINTE ANNE, CHATILLON-SUR-LOIRE</name>
  <Point>
    <coordinates>2.752685,47.591653</coordinates>
  </Point>
</Placemark>
<Placemark>
  <name>H L M RUE DE BEAULIEU, CHATILLON-SUR-LOIRE</name>
  <Point>
    <coordinates>2.752512,47.590916</coordinates>
  </Point>
</Placemark>
<Placemark>
  <name>MAIRIE 47 RUE FRANCHE, CHATILLON-SUR-LOIRE</name>
  <Point>
    <coordinates>2.752777,47.590757</coordinates>
  </Point>
</Placemark>
<Placemark>
  <name>CHANOY, CHATILLON-SUR-LOIRE</name>
  <Point>
    <coordinates>2.77011,47.572015</coordinates>
  </Point>
</Placemark>
<Placemark>
  <name>ROUTE DE BEAULIEU, CHATILLON-SUR-LOIRE</name>
  <Point>
    <coordinates>2.759397,47.58596</coordinates>
  </Point>
</Placemark>
<Placemark>
  <name>SALLE DE REUNION RUE DES PRES, OUSSON-SUR-LOIRE</name>
  <Point>
    <coordinates>2.789206,47.588621</coordinates>
  </Point>
</Placemark>
<Placemark>
  <name>RUE DU CLOS DE PIERRE BISE, BRIARE</name>
  <Point>
    <coordinates>2.744349,47.626193</coordinates>
  </Point>
</Placemark>
<Placemark>
  <name>RUE DE L&#39;INDUSTRIE, BRIARE</name>
  <Point>
    <coordinates>2.746443,47.627502</coordinates>
  </Point>
</Placemark>
<Placemark>
  <name>AVENUE DU MARECHAL DE LATTRE DE TASSIGNY, BRIARE</name>
  <Point>
    <coordinates>2.746229,47.632339</coordinates>
  </Point>
</Placemark>
<Placemark>
  <name>RUE DU CLOS DES BUCHETS, BRIARE</name>
  <Point>
    <coordinates>2.742448,47.631432</coordinates>
  </Point>
</Placemark>
<Placemark>
  <name>RUE SAINT ROCH, BRIARE</name>
  <Point>
    <coordinates>2.738288,47.637668</coordinates>
  </Point>
</Placemark>
<Placemark>
  <name>MAIRIE, BRIARE</name>
  <Point>
    <coordinates>2.740842,47.639556</coordinates>
  </Point>
</Placemark>
<Placemark>
  <name>CENTRE CULTUREL, BRIARE</name>
  <Point>
    <coordinates>2.7357261,47.6400594</coordinates>
  </Point>
</Placemark>
<Placemark>
  <name>1 BOULEVARD LOREAU, BRIARE</name>
  <Point>
    <coordinates>2.733331,47.644354</coordinates>
  </Point>
</Placemark>
<Placemark>
  <name>AVENUE YVER BAPTEROSSES, BRIARE</name>
  <Point>
    <coordinates>2.735613,47.647795</coordinates>
  </Point>
</Placemark>
<Placemark>
  <name>RUE DU PORT A BELLEAU, BRIARE</name>
  <Point>
    <coordinates>2.731229,47.651225</coordinates>
  </Point>
</Placemark>
<Placemark>
  <name>PLACE DU CHAMP DE FOIRE, SAINT-FIRMIN-SUR-LOIRE</name>
  <Point>
    <coordinates>2.73424005508,47.6214981079</coordinates>
  </Point>
</Placemark>
<Placemark>
  <name>MAIRIE 22 RUE D&#39;AUTRUY, SAINT-BRISSON-SUR-LOIRE</name>
  <Point>
    <coordinates>2.681618,47.646351</coordinates>
  </Point>
</Placemark>
<Placemark>
  <name>LA GOURRE, SAINT-MARTIN-SUR-OCRE</name>
  <Point>
    <coordinates>2.657603,47.659085</coordinates>
  </Point>
</Placemark>
<Placemark>
  <name>MAIRIE 145 RUE DU PUITS, SAINT-MARTIN-SUR-OCRE</name>
  <Point>
    <coordinates>2.656616,47.657369</coordinates>
  </Point>
</Placemark>
<Placemark>
  <name>PLACE DE LA MAIRIE, AUTRY-LE-CHATEL</name>
  <Point>
    <coordinates>2.600421,47.6015</coordinates>
  </Point>
</Placemark>
<Placemark>
  <name>RUE DE LA POSTE, COULLONS</name>
  <Point>
    <coordinates>2.494137,47.621845</coordinates>
  </Point>
</Placemark>
<Placemark>
  <name>MAIRIE, COULLONS</name>
  <Point>
    <coordinates>2.4923177,47.6196205</coordinates>
  </Point>
</Placemark>
<Placemark>
  <name>ECOLE PRIMAIRE, COULLONS</name>
  <Point>
    <coordinates>2.4909738,47.619343</coordinates>
  </Point>
</Placemark>
<Placemark>
  <name>RUE LIEUTENANT BRUNEAU, COULLONS</name>
  <Point>
    <coordinates>2.490695,47.617735</coordinates>
  </Point>
</Placemark>
<Placemark>
  <name>PLACE DE LA REGENCE, COULLONS</name>
  <Point>
    <coordinates>2.491274,47.616529</coordinates>
  </Point>
</Placemark>
<Placemark>
  <name>RUE P L BOURASSINS, COULLONS</name>
  <Point>
    <coordinates>2.492904,47.616617</coordinates>
  </Point>
</Placemark>
<Placemark>
  <name>RUE DU PONT ST MARTIN, COULLONS</name>
  <Point>
    <coordinates>2.501638,47.61756</coordinates>
  </Point>
</Placemark>
<Placemark>
  <name>RUE DE LA NATION, COULLONS</name>
  <Point>
    <coordinates>2.492401,47.622084</coordinates>
  </Point>
</Placemark>
<Placemark>
  <name>RUE DU SERGENT LELIEVRE, COULLONS</name>
  <Point>
    <coordinates>2.491946,47.622534</coordinates>
  </Point>
</Placemark>
<Placemark>
  <name>ROUTE DE COULLONS, CERDON</name>
  <Point>
    <coordinates>2.369761,47.63679</coordinates>
  </Point>
</Placemark>
<Placemark>
  <name>SALLE DES FETES RTE D&#39;ARGENT, CERDON</name>
  <Point>
    <coordinates>2.36741,47.631549</coordinates>
  </Point>
</Placemark>
<Placemark>
  <name>MAIRIE RUE DE LA MAIRIE, CERDON</name>
  <Point>
    <coordinates>2.363654,47.634552</coordinates>
  </Point>
</Placemark>
<Placemark>
  <name>ROUTE DE CLEMONT (ENTRE N°7 ET 9), CERDON</name>
  <Point>
    <coordinates>2.360532,47.630865</coordinates>
  </Point>
</Placemark>
<Placemark>
  <name>ROUTE DE SULLY, CERDON</name>
  <Point>
    <coordinates>2.359169,47.639939</coordinates>
  </Point>
</Placemark>
<Placemark>
  <name>ROUTE DE CERDON, VILLEMURLIN</name>
  <Point>
    <coordinates>2.336112,47.683749</coordinates>
  </Point>
</Placemark>
<Placemark>
  <name>ROUTE DES ANGLIERS, VILLEMURLIN</name>
  <Point>
    <coordinates>2.33533,47.687995</coordinates>
  </Point>
</Placemark>
<Placemark>
  <name>MAIRIE RUE ROMAINE, VIGLAIN</name>
  <Point>
    <coordinates>2.30286002159,47.7280006409</coordinates>
  </Point>
</Placemark>
<Placemark>
  <name>GRANDE RUE, ISDES</name>
  <Point>
    <coordinates>2.255583,47.672321</coordinates>
  </Point>
</Placemark>
<Placemark>
  <name>ROUTE DE TIGY, VANNES-SUR-COSSON</name>
  <Point>
    <coordinates>2.212149,47.71866</coordinates>
  </Point>
</Placemark>
<Placemark>
  <name>RUE DE LA RIGOLERIE, SENNELY</name>
  <Point>
    <coordinates>2.147714,47.680691</coordinates>
  </Point>
</Placemark>
<Placemark>
  <name>ROUTE DE SENNELY, MENESTREAU-EN-VILLETTE</name>
  <Point>
    <coordinates>2.028662,47.699449</coordinates>
  </Point>
</Placemark>
<Placemark>
  <name>MAIRIE - 35 PLACE DU 11 NOVEMBRE., MENESTREAU-EN-VILLETTE</name>
  <Point>
    <coordinates>2.021708,47.699</coordinates>
  </Point>
</Placemark>
<Placemark>
  <name>ENTREE LOTISSEMENT FREMILLON, FERTE-SAINT-AUBIN (La)</name>
  <Point>
    <coordinates>1.94693,47.707393</coordinates>
  </Point>
</Placemark>
<Placemark>
  <name>ECOLE DES CHENERIES RUE ALAIN FOUNIER, FERTE-SAINT-AUBIN (La)</name>
  <Point>
    <coordinates>1.945885,47.713499</coordinates>
  </Point>
</Placemark>
<Placemark>
  <name>RUE BASSE - CHAMP FLEURI, FERTE-SAINT-AUBIN (La)</name>
  <Point>
    <coordinates>1.93845,47.711006</coordinates>
  </Point>
</Placemark>
<Placemark>
  <name>RUE DE LA TOUR SAINT AUBIN, FERTE-SAINT-AUBIN (La)</name>
  <Point>
    <coordinates>1.94066,47.706495</coordinates>
  </Point>
</Placemark>
<Placemark>
  <name>RUE CESAR FINANCE, LIGNY-LE-RIBAULT</name>
  <Point>
    <coordinates>1.778034,47.682135</coordinates>
  </Point>
</Placemark>
<Placemark>
  <name>PLACE DU 11 NOVEMBRE, LIGNY-LE-RIBAULT</name>
  <Point>
    <coordinates>1.827675,47.693977</coordinates>
  </Point>
</Placemark>
<Placemark>
  <name>PLACE DE LA GARE, FERTE-SAINT-AUBIN (La)</name>
  <Point>
    <coordinates>1.932379,47.721034</coordinates>
  </Point>
</Placemark>
<Placemark>
  <name>ECOLE DES SABLONS RUE LEON PINAULT, FERTE-SAINT-AUBIN (La)</name>
  <Point>
    <coordinates>1.934575,47.716466</coordinates>
  </Point>
</Placemark>
<Placemark>
  <name>PARKING CENTRE SOCIAL RUE HIPPOLYTE MARTIN, FERTE-SAINT-AUBIN (La)</name>
  <Point>
    <coordinates>1.939428,47.715123</coordinates>
  </Point>
</Placemark>
<Placemark>
  <name>ST AUBIN RN 20 FACE A L&#39;EGLISE DE SAINT AUBIN, FERTE-SAINT-AUBIN (La)</name>
  <Point>
    <coordinates>1.94099,47.716899</coordinates>
  </Point>
</Placemark>
<Placemark>
  <name>ANGLE RUE MAURICE RAVEL , ROUTE DE VANNES, FERTE-SAINT-AUBIN (La)</name>
  <Point>
    <coordinates>1.94099,47.716899</coordinates>
  </Point>
</Placemark>
<Placemark>
  <name>BIBLIOTHEQUE ( RUE A.BRIAND), FERTE-SAINT-AUBIN (La)</name>
  <Point>
    <coordinates>1.9427741,47.717627</coordinates>
  </Point>
</Placemark>
<Placemark>
  <name>RUE DES PRES VERTS-A GAUCHE ENTREE DU STADE, FERTE-SAINT-AUBIN (La)</name>
  <Point>
    <coordinates>1.94184,47.7190287</coordinates>
  </Point>
</Placemark>
<Placemark>
  <name>HOTEL DE VILLE PLACE CHARLES DE GAULLE, FERTE-SAINT-AUBIN (La)</name>
  <Point>
    <coordinates>1.9413628,47.7191876</coordinates>
  </Point>
</Placemark>
<Placemark>
  <name>ECOLE MIREILLE PRIEUR RUE DE RIVOLI, FERTE-SAINT-AUBIN (La)</name>
  <Point>
    <coordinates>1.9426067,47.7219677</coordinates>
  </Point>
</Placemark>
<Placemark>
  <name>MAIRIE ROUTE DE MARCILLY, ARDON</name>
  <Point>
    <coordinates>1.94000005722,47.7305984497</coordinates>
  </Point>
</Placemark>
<Placemark>
  <name>SALLE CHANTALOUP - RUE DES RELAIS, MARCILLY-EN-VILLETTE</name>
  <Point>
    <coordinates>2.016115,47.766003</coordinates>
  </Point>
</Placemark>
<Placemark>
  <name>SALLE DES FETES, MARCILLY-EN-VILLETTE</name>
  <Point>
    <coordinates>2.0162264,47.7677352</coordinates>
  </Point>
</Placemark>
<Placemark>
  <name>PLACE DE L EGLISE, VIENNE-EN-VAL</name>
  <Point>
    <coordinates>2.11177992821,47.8046989441</coordinates>
  </Point>
</Placemark>
<Placemark>
  <name>MAIRIE 13 ROUTE D&#39;ORLEANS, VIENNE-EN-VAL</name>
  <Point>
    <coordinates>2.13382,47.800161</coordinates>
  </Point>
</Placemark>
<Placemark>
  <name>CENTRE CULTUREL DE LA MAUGERIE – 39 RUE DE JARGEAU, VIENNE-EN-VAL</name>
  <Point>
    <coordinates>2.132232,47.803361</coordinates>
  </Point>
</Placemark>
<Placemark>
  <name>ROUTE DE VIENNE EN VAL, FEROLLES</name>
  <Point>
    <coordinates>2.115156,47.83221</coordinates>
  </Point>
</Placemark>
<Placemark>
  <name>LIEUDIT CHATAIGNERAIE, SANDILLON</name>
  <Point>
    <coordinates>2.0285778,47.843566</coordinates>
  </Point>
</Placemark>
<Placemark>
  <name>LIEUDIT CHAMPVALLINS, SANDILLON</name>
  <Point>
    <coordinates>2.013969,47.843243</coordinates>
  </Point>
</Placemark>
<Placemark>
  <name>MAIRIE 251 RUE D&#39;ORLEANS, SANDILLON</name>
  <Point>
    <coordinates>2.02936,47.84574</coordinates>
  </Point>
</Placemark>
<Placemark>
  <name>SALLE DES FETES, SANDILLON</name>
  <Point>
    <coordinates>2.0356551,47.8460967</coordinates>
  </Point>
</Placemark>
<Placemark>
  <name>PLACE PARMENTIER, DARVOY</name>
  <Point>
    <coordinates>2.0960928,47.864471</coordinates>
  </Point>
</Placemark>
<Placemark>
  <name>STADE MUNICIPAL - RUE DU 44 EME REGIMENT INFANTERIE, JARGEAU</name>
  <Point>
    <coordinates>2.115441,47.867428</coordinates>
  </Point>
</Placemark>
<Placemark>
  <name>MAIRIE – PLACE DU GRAND CLOITRE, JARGEAU</name>
  <Point>
    <coordinates>2.122264,47.866604</coordinates>
  </Point>
</Placemark>
<Placemark>
  <name>ECOLE MATERNELLE- 10 AVENUE DU GENERAL DE GAULLE, JARGEAU</name>
  <Point>
    <coordinates>2.12489,47.86556</coordinates>
  </Point>
</Placemark>
<Placemark>
  <name>ANGLE DES RUES : CHEMIN BESSIER ET DE LA FERTE ST AUBIN, JARGEAU</name>
  <Point>
    <coordinates>2.12397,47.864225</coordinates>
  </Point>
</Placemark>
<Placemark>
  <name>EN FACE DE LA MAIRIE, OUVROUER-LES-CHAMPS</name>
  <Point>
    <coordinates>2.1786881,47.8325868</coordinates>
  </Point>
</Placemark>
<Placemark>
  <name>ROUTE DE CHATEAUNEUF, SIGLOY</name>
  <Point>
    <coordinates>2.224825,47.837912</coordinates>
  </Point>
</Placemark>
<Placemark>
  <name>PLACE RABOLIOT, TIGY</name>
  <Point>
    <coordinates>2.198942,47.793827</coordinates>
  </Point>
</Placemark>
<Placemark>
  <name>MAIRIE RTE DE SULLY SUR LOIRE, TIGY</name>
  <Point>
    <coordinates>2.200861,47.7950617</coordinates>
  </Point>
</Placemark>
<Placemark>
  <name>MAIRIE – 2 PLACE DE L&#39;EGLISE, NEUVY-EN-SULLIAS</name>
  <Point>
    <coordinates>2.244987,47.795879</coordinates>
  </Point>
</Placemark>
<Placemark>
  <name>RUE DES ECOLES, GUILLY</name>
  <Point>
    <coordinates>2.27592,47.804576</coordinates>
  </Point>
</Placemark>
<Placemark>
  <name>RUE DU VIEUX PORT, GUILLY</name>
  <Point>
    <coordinates>2.284763,47.789328</coordinates>
  </Point>
</Placemark>
<Placemark>
  <name>AVENUE DE TERRES NOIRES, SULLY-SUR-LOIRE</name>
  <Point>
    <coordinates>2.359537,47.761738</coordinates>
  </Point>
</Placemark>
<Placemark>
  <name>AVENUE DU HAMEAU, SULLY-SUR-LOIRE</name>
  <Point>
    <coordinates>2.367177,47.761965</coordinates>
  </Point>
</Placemark>
<Placemark>
  <name>RUE DU SECHOY, SULLY-SUR-LOIRE</name>
  <Point>
    <coordinates>2.375272,47.760238</coordinates>
  </Point>
</Placemark>
<Placemark>
  <name>AVENUE DE LA GARE, SULLY-SUR-LOIRE</name>
  <Point>
    <coordinates>2.371952,47.762123</coordinates>
  </Point>
</Placemark>
<Placemark>
  <name>RUE DES BARRES, SULLY-SUR-LOIRE</name>
  <Point>
    <coordinates>2.369881,47.765461</coordinates>
  </Point>
</Placemark>
<Placemark>
  <name>PONT SNCF FAUBOURG ST GERMAIN, SULLY-SUR-LOIRE</name>
  <Point>
    <coordinates>2.37095,47.766563</coordinates>
  </Point>
</Placemark>
<Placemark>
  <name>RUE DE L&#39;EGLISE, SAINT-PERE-SUR-LOIRE</name>
  <Point>
    <coordinates>2.371057,47.773043</coordinates>
  </Point>
</Placemark>
<Placemark>
  <name>RUE DES SABLES, SAINT-PERE-SUR-LOIRE</name>
  <Point>
    <coordinates>2.364637,47.774074</coordinates>
  </Point>
</Placemark>
<Placemark>
  <name>RUE DU GUE DE MARGOT (VOIE NOUVELLE), SAINT-BENOIT-SUR-LOIRE</name>
  <Point>
    <coordinates>2.312223,47.809501</coordinates>
  </Point>
</Placemark>
<Placemark>
  <name>RUE ORLEANAISE (APRES LE 129), SAINT-BENOIT-SUR-LOIRE</name>
  <Point>
    <coordinates>2.305569,47.810934</coordinates>
  </Point>
</Placemark>
<Placemark>
  <name>RUE MAX JACOB (SALLE DES FETES), SAINT-BENOIT-SUR-LOIRE</name>
  <Point>
    <coordinates>2.307626,47.810568</coordinates>
  </Point>
</Placemark>
<Placemark>
  <name>PLACE DE LA MAIRIE, BRAY-EN-VAL</name>
  <Point>
    <coordinates>2.365002,47.828617</coordinates>
  </Point>
</Placemark>
<Placemark>
  <name>SALLE POLYVALENTE, BORDES (Les)</name>
  <Point>
    <coordinates>2.406901,47.815488</coordinates>
  </Point>
</Placemark>
<Placemark>
  <name>MAIRIE 34 RUE DE LA MAIRIE, BORDES (Les)</name>
  <Point>
    <coordinates>2.401829,47.812602</coordinates>
  </Point>
</Placemark>
<Placemark>
  <name>PARKING ECOLE RUE DE LA POSTE, BORDES (Les)</name>
  <Point>
    <coordinates>2.40317,47.811892</coordinates>
  </Point>
</Placemark>
<Placemark>
  <name>ROUTE DE GIEN - LOTISSEMENT GROS CHENE, BORDES (Les)</name>
  <Point>
    <coordinates>2.416033,47.806369</coordinates>
  </Point>
</Placemark>
<Placemark>
  <name>RUE DES COTEAUX, BORDES (Les)</name>
  <Point>
    <coordinates>2.4444628,47.7971847</coordinates>
  </Point>
</Placemark>
<Placemark>
  <name>MAIRIE ROUTE D&#39;OUZOUER, BONNEE</name>
  <Point>
    <coordinates>2.39053988457,47.7963981628</coordinates>
  </Point>
</Placemark>
<Placemark>
  <name>LOTISSEMENT VAL D&#39;OR, BONNEE</name>
  <Point>
    <coordinates>2.388424,47.797504</coordinates>
  </Point>
</Placemark>
<Placemark>
  <name>RUE DES PINS, SAINT-PERE-SUR-LOIRE</name>
  <Point>
    <coordinates>2.375545,47.788459</coordinates>
  </Point>
</Placemark>
<Placemark>
  <name>6 RUE DU DOCTEUR SEGELLE, SAINT-PERE-SUR-LOIRE</name>
  <Point>
    <coordinates>2.370931,47.774108</coordinates>
  </Point>
</Placemark>
<Placemark>
  <name>MAIRIE RUE DES DEPORTES, SULLY-SUR-LOIRE</name>
  <Point>
    <coordinates>2.37569999695,47.7657012939</coordinates>
  </Point>
</Placemark>
<Placemark>
  <name>ECOLE MATERNELLE DU HAMEAU RUE HENRI PRAD, SULLY-SUR-LOIRE</name>
  <Point>
    <coordinates>2.375246,47.765027</coordinates>
  </Point>
</Placemark>
<Placemark>
  <name>BOULEVARD DES CHAMPS DE FOIRE, SULLY-SUR-LOIRE</name>
  <Point>
    <coordinates>2.37614,47.764596</coordinates>
  </Point>
</Placemark>
<Placemark>
  <name>ROUTE DE GIEN, SULLY-SUR-LOIRE</name>
  <Point>
    <coordinates>2.385912,47.76344</coordinates>
  </Point>
</Placemark>
<Placemark>
  <name>PLACE DE L EGLISE, SAINT-AIGNAN-LE-JAILLARD</name>
  <Point>
    <coordinates>2.43949007988,47.7426986694</coordinates>
  </Point>
</Placemark>
<Placemark>
  <name>SALLES DES ASSOCIATIONS 2 RUE DE LA MAIRIE, SAINT-AIGNAN-LE-JAILLARD</name>
  <Point>
    <coordinates>2.442658,47.743078</coordinates>
  </Point>
</Placemark>
<Placemark>
  <name>ANCIENNE ECOLE DE FILLE, LION-EN-SULLIAS</name>
  <Point>
    <coordinates>2.489084,47.726876</coordinates>
  </Point>
</Placemark>
<Placemark>
  <name>MAIRIE 7 RUE DE VILLEMURLIN, SAINT-FLORENT</name>
  <Point>
    <coordinates>2.474874,47.689781</coordinates>
  </Point>
</Placemark>
<Placemark>
  <name>RUE DU PETIT CLOU, SAINT-GONDON</name>
  <Point>
    <coordinates>2.543166,47.698698</coordinates>
  </Point>
</Placemark>
<Placemark>
  <name>AVENUE DES ROSES ( A COTE DU N° 36), POILLY-LEZ-GIEN</name>
  <Point>
    <coordinates>2.592215,47.678221</coordinates>
  </Point>
</Placemark>
<Placemark>
  <name>PLACE DE LA GUINCHERE, POILLY-LEZ-GIEN</name>
  <Point>
    <coordinates>2.598568,47.675312</coordinates>
  </Point>
</Placemark>
<Placemark>
  <name>STADE, POILLY-LEZ-GIEN</name>
  <Point>
    <coordinates>2.597515,47.676895</coordinates>
  </Point>
</Placemark>
<Placemark>
  <name>PLACE DE L&#39;EGLISE, POILLY-LEZ-GIEN</name>
  <Point>
    <coordinates>2.599049,47.678644</coordinates>
  </Point>
</Placemark>
<Placemark>
  <name>ECOLE DU BERRY- RUE DES GASCONS, GIEN</name>
  <Point>
    <coordinates>2.625373,47.680097</coordinates>
  </Point>
</Placemark>
<Placemark>
  <name>MAISON DES ASSOCIATIONS – RUE DE MONTBRICON, GIEN</name>
  <Point>
    <coordinates>2.6299574,47.6847907</coordinates>
  </Point>
</Placemark>
<Placemark>
  <name>PLACE JEAN JAURES, GIEN</name>
  <Point>
    <coordinates>2.629941,47.684774</coordinates>
  </Point>
</Placemark>
<Placemark>
  <name>QUAI LESTRADE, GIEN</name>
  <Point>
    <coordinates>2.624348,47.68623</coordinates>
  </Point>
</Placemark>
<Placemark>
  <name>QUAI DE NICE, GIEN</name>
  <Point>
    <coordinates>2.641023,47.681059</coordinates>
  </Point>
</Placemark>
<Placemark>
  <name>SALLE DU PONT BOUCHEROT- AVENUE JEAN VILLEJEAN, GIEN</name>
  <Point>
    <coordinates>2.637649,47.689891</coordinates>
  </Point>
</Placemark>
<Placemark>
  <name>ECOLE DE LA GARE - AVENUE DE LA REPUBLIQUE, GIEN</name>
  <Point>
    <coordinates>2.634093,47.6946612</coordinates>
  </Point>
</Placemark>
<Placemark>
  <name>CENTRE ADMINISTRATIF – 3 CHEMIN MONTFORT, GIEN</name>
  <Point>
    <coordinates>2.624489,47.697544</coordinates>
  </Point>
</Placemark>
<Placemark>
  <name>CENTRE SOCIAL DES MONTOIRES - RUE DES LORIOTS, GIEN</name>
  <Point>
    <coordinates>2.621471,47.702661</coordinates>
  </Point>
</Placemark>
<Placemark>
  <name>ZONE DE CUIRY, GIEN</name>
  <Point>
    <coordinates>2.628125,47.708944</coordinates>
  </Point>
</Placemark>
<Placemark>
  <name>SALLE DES FETES - RUE G. CLEMENCEAU, GIEN</name>
  <Point>
    <coordinates>2.6231454,47.7085274</coordinates>
  </Point>
</Placemark>
<Placemark>
  <name>MAIRIE D ARRABLOY- RUE DU CHÂTEAU, GIEN</name>
  <Point>
    <coordinates>2.61942005157,47.7056007385</coordinates>
  </Point>
</Placemark>
<Placemark>
  <name>ROUTE D&#39;ORLEANS, GIEN</name>
  <Point>
    <coordinates>2.607638,47.697882</coordinates>
  </Point>
</Placemark>
<Placemark>
  <name>MAIRIE, NEVOY</name>
  <Point>
    <coordinates>2.580353,47.713136</coordinates>
  </Point>
</Placemark>
<Placemark>
  <name>ROUTE DU VAL, DAMPIERRE-EN-BURLY</name>
  <Point>
    <coordinates>2.490161,47.746961</coordinates>
  </Point>
</Placemark>
<Placemark>
  <name>147 RUE HENRY MILLET, OUZOUER-SUR-LOIRE</name>
  <Point>
    <coordinates>2.481798,47.76494</coordinates>
  </Point>
</Placemark>
<Placemark>
  <name>RUE HENRI ARMENAULT, OUZOUER-SUR-LOIRE</name>
  <Point>
    <coordinates>2.478799,47.764117</coordinates>
  </Point>
</Placemark>
<Placemark>
  <name>40, RUE DE LA FORET, OUZOUER-SUR-LOIRE</name>
  <Point>
    <coordinates>2.480849,47.76741</coordinates>
  </Point>
</Placemark>
<Placemark>
  <name>PLACE DE L&#39;HOTEL DE VILLE, OUZOUER-SUR-LOIRE</name>
  <Point>
    <coordinates>2.480352,47.766699</coordinates>
  </Point>
</Placemark>
<Placemark>
  <name>CHEMIN DES BROSSES, OUZOUER-SUR-LOIRE</name>
  <Point>
    <coordinates>2.470433,47.780149</coordinates>
  </Point>
</Placemark>
<Placemark>
  <name>RUE D&#39;ORLEANS (DEVANT ECOMARCHE), OUZOUER-SUR-LOIRE</name>
  <Point>
    <coordinates>2.459871,47.779784</coordinates>
  </Point>
</Placemark>
<Placemark>
  <name>MAIRIE RUE NATIONALE, DAMPIERRE-EN-BURLY</name>
  <Point>
    <coordinates>2.51506996155,47.7612991333</coordinates>
  </Point>
</Placemark>
<Placemark>
  <name>ROUTE DE CORCAMBON, DAMPIERRE-EN-BURLY</name>
  <Point>
    <coordinates>2.525783,47.769039</coordinates>
  </Point>
</Placemark>
<Placemark>
  <name>MAIRIE 1 RUE DE LANGESSE, MOULINET-SUR-SOLIN (Le)</name>
  <Point>
    <coordinates>2.626545,47.837512</coordinates>
  </Point>
</Placemark>
<Placemark>
  <name>MAIRIE 5 ROUTE DE L&#39;ETANG, LANGESSE</name>
  <Point>
    <coordinates>2.66171,47.820859</coordinates>
  </Point>
</Placemark>
<Placemark>
  <name>MAIRIE 5 RUE DE LA POSTE, CHOUX (Les)</name>
  <Point>
    <coordinates>2.675838,47.79737</coordinates>
  </Point>
</Placemark>
<Placemark>
  <name>MAIRIE RUE DE LA MAIRIE, BOISMORAND</name>
  <Point>
    <coordinates>2.718615,47.785904</coordinates>
  </Point>
</Placemark>
<Placemark>
  <name>ROUTE D&#39;OUZOUER, BUSSIERE (La)</name>
  <Point>
    <coordinates>2.751263,47.743647</coordinates>
  </Point>
</Placemark>
<Placemark>
  <name>ROUTE DE LA BUSSIERE, ADON</name>
  <Point>
    <coordinates>2.795636,47.76319</coordinates>
  </Point>
</Placemark>
<Placemark>
  <name>ROUTE DES ANGLIERS, VILLEMURLIN</name>
  <Point>
    <coordinates>2.33533,47.687995</coordinates>
  </Point>
</Placemark>

<Placemark>
<LinearRing>
<coordinates>
2.33533,47.687995
2.839866,47.745883
2.8214715,47.7160727
2.808643,47.676142
2.8012325,47.6806251
2.805441,47.672725
2.814554,47.671657
2.89313697815,47.6826667786
2.9201215,47.6583184
2.87185001373,47.6269989014
2.93344,47.576218
2.9116,47.58113
2.842616,47.563752
2.836283,47.565902
2.8358989,47.564671
2.840280056,47.5614013672
2.849242,47.554178
2.84543,47.555329
2.817702,47.542867
2.81345,47.544248
2.716397,47.507322
2.715697,47.508019
2.659047,47.538286
2.732008,47.585841
2.743138,47.588687
2.745842,47.592085
2.749426,47.591962
2.753158,47.592456
2.752685,47.591653
2.752512,47.590916
2.752777,47.590757
2.77011,47.572015
2.759397,47.58596
2.789206,47.588621
2.744349,47.626193
2.746443,47.627502
2.746229,47.632339
2.742448,47.631432
2.738288,47.637668
2.740842,47.639556
2.7357261,47.6400594
2.733331,47.644354
2.735613,47.647795
2.731229,47.651225
2.73424005508,47.6214981079
2.681618,47.646351
2.657603,47.659085
2.656616,47.657369
2.600421,47.6015
2.494137,47.621845
2.4923177,47.6196205
2.4909738,47.619343
2.490695,47.617735
2.491274,47.616529
2.492904,47.616617
2.501638,47.61756
2.492401,47.622084
2.491946,47.622534
2.369761,47.63679
2.36741,47.631549
2.363654,47.634552
2.360532,47.630865
2.359169,47.639939
2.336112,47.683749
2.33533,47.687995
2.30286002159,47.7280006409
2.255583,47.672321
2.212149,47.71866
2.147714,47.680691
2.028662,47.699449
2.021708,47.699
1.94693,47.707393
1.945885,47.713499
1.93845,47.711006
1.94066,47.706495
1.778034,47.682135
1.827675,47.693977
1.932379,47.721034
1.934575,47.716466
1.939428,47.715123
1.94099,47.716899
1.94099,47.716899
1.9427741,47.717627
1.94184,47.7190287
1.9413628,47.7191876
1.9426067,47.7219677
1.94000005722,47.7305984497
2.016115,47.766003
2.0162264,47.7677352
2.11177992821,47.8046989441
2.13382,47.800161
2.132232,47.803361
2.115156,47.83221
2.0285778,47.843566
2.013969,47.843243
2.02936,47.84574
2.0356551,47.8460967
2.0960928,47.864471
2.115441,47.867428
2.122264,47.866604
2.12489,47.86556
2.12397,47.864225
2.1786881,47.8325868
2.224825,47.837912
2.198942,47.793827
2.200861,47.7950617
2.244987,47.795879
2.27592,47.804576
2.284763,47.789328
2.359537,47.761738
2.367177,47.761965
2.375272,47.760238
2.371952,47.762123
2.369881,47.765461
2.37095,47.766563
2.371057,47.773043
2.364637,47.774074
2.312223,47.809501
2.305569,47.810934
2.307626,47.810568
2.365002,47.828617
2.406901,47.815488
2.401829,47.812602
2.40317,47.811892
2.416033,47.806369
2.4444628,47.7971847
2.39053988457,47.7963981628
2.388424,47.797504
2.375545,47.788459
2.370931,47.774108
2.37569999695,47.7657012939
2.375246,47.765027
2.37614,47.764596
2.385912,47.76344
2.43949007988,47.7426986694
2.442658,47.743078
2.489084,47.726876
2.474874,47.689781
2.543166,47.698698
2.592215,47.678221
2.598568,47.675312
2.597515,47.676895
2.599049,47.678644
2.625373,47.680097
2.6299574,47.6847907
2.629941,47.684774
2.624348,47.68623
2.641023,47.681059
2.637649,47.689891
2.634093,47.6946612
2.624489,47.697544
2.621471,47.702661
2.628125,47.708944
2.6231454,47.7085274
2.61942005157,47.7056007385
2.607638,47.697882
2.580353,47.713136
2.490161,47.746961
2.481798,47.76494
2.478799,47.764117
2.480849,47.76741
2.480352,47.766699
2.470433,47.780149
2.459871,47.779784
2.51506996155,47.7612991333
2.525783,47.769039
2.626545,47.837512
2.66171,47.820859
2.675838,47.79737
2.718615,47.785904
2.751263,47.743647
2.795636,47.76319
2.33533,47.687995
</coordinates>
</LinearRing>
</Placemark></Document>
</kml>
